Vehicle_ID,Current_Location,Availability,Latitude,Longitude
V001,"PSG College Of Technology, Avinashi Rd, Peelamedu, Coimbatore, Tamil Nadu 641004",Available,11.0246833,77.0028425
V002,"Prince Infocity, 286/1 & 286/2, Rajiv Gandhi Salai, Kandhanchavadi, Kottivakkam, Chennai, Tamil Nadu 600096",Available,13.08784,80.27847
V003,"The Oberoi, Bengaluru, 37-39, Mahatma Gandhi Rd, Yellappa Garden, Yellappa Chetty Layout, Sivanchetti Gardens, Bengaluru, Karnataka 560001",Available,12.9914,77.5944
V004,"X67V+X48, Bastian St, Fort Nagar, Fort Kochi, Kochi, Kerala 682001",Available,9.93988,76.26022
V005,"CITY CENTER, 8-2-592, Rd Number 1, Banjara Hills, Hyderabad, Telangana 500034",Available,17.38405,78.45636
